{
"type": "FeatureCollection",
"name": "input",
"features": [
{ "type": "Feature", "properties": { "NAME": "Vatican City" }, "geometry": { "type": "Point", "coordinates": [ 12.453387, 41.903282 ] } },
{ "type": "Feature", "properties": { "NAME": "San Marino" }, "geometry": { "type": "Point", "coordinates": [ 12.44177, 43.936096 ] } },
{ "type": "Feature", "properties": { "NAME": "Vaduz" }, "geometry": { "type": "Point", "coordinates": [ 9.51667, 47.133724 ] } },
{ "type": "Feature", "properties": { "NAME": "Lobamba" }, "geometry": { "type": "Point", "coordinates": [ 31.199997, -26.466668 ] } },
{ "type": "Feature", "properties": { "NAME": "Luxembourg" }, "geometry": { "type": "Point", "coordinates": [ 6.130003, 49.61166 ] } },
{ "type": "Feature", "properties": { "NAME": "Palikir" }, "geometry": { "type": "Point", "coordinates": [ 158.149974, 6.916644 ] } },
{ "type": "Feature", "properties": { "NAME": "Majuro" }, "geometry": { "type": "Point", "coordinates": [ 171.38, 7.103004 ] } },
{ "type": "Feature", "properties": { "NAME": "Funafuti" }, "geometry": { "type": "Point", "coordinates": [ 179.216647, -8.516652 ] } },
{ "type": "Feature", "properties": { "NAME": "Melekeok" }, "geometry": { "type": "Point", "coordinates": [ 134.626549, 7.487396 ] } },
{ "type": "Feature", "properties": { "NAME": "Bir Lehlou" }, "geometry": { "type": "Point", "coordinates": [ -9.652522, 26.119167 ] } },
{ "type": "Feature", "properties": { "NAME": "Monaco" }, "geometry": { "type": "Point", "coordinates": [ 7.406913, 43.739646 ] } },
{ "type": "Feature", "properties": { "NAME": "Tarawa" }, "geometry": { "type": "Point", "coordinates": [ 173.017571, 1.338188 ] } },
{ "type": "Feature", "properties": { "NAME": "Moroni" }, "geometry": { "type": "Point", "coordinates": [ 43.240244, -11.704158 ] } },
{ "type": "Feature", "properties": { "NAME": "Andorra" }, "geometry": { "type": "Point", "coordinates": [ 1.516486, 42.500001 ] } },
{ "type": "Feature", "properties": { "NAME": "Port-of-Spain" }, "geometry": { "type": "Point", "coordinates": [ -61.517031, 10.651997 ] } },
{ "type": "Feature", "properties": { "NAME": "Kigali" }, "geometry": { "type": "Point", "coordinates": [ 30.058586, -1.951644 ] } },
{ "type": "Feature", "properties": { "NAME": "Mbabane" }, "geometry": { "type": "Point", "coordinates": [ 31.133335, -26.316651 ] } },
{ "type": "Feature", "properties": { "NAME": "Juba" }, "geometry": { "type": "Point", "coordinates": [ 31.580026, 4.829975 ] } },
{ "type": "Feature", "properties": { "NAME": "The Hague" }, "geometry": { "type": "Point", "coordinates": [ 4.269961, 52.080037 ] } },
{ "type": "Feature", "properties": { "NAME": "Ljubljana" }, "geometry": { "type": "Point", "coordinates": [ 14.514969, 46.055288 ] } },
{ "type": "Feature", "properties": { "NAME": "Bratislava" }, "geometry": { "type": "Point", "coordinates": [ 17.116981, 48.150018 ] } },
{ "type": "Feature", "properties": { "NAME": "Doha" }, "geometry": { "type": "Point", "coordinates": [ 51.532968, 25.286556 ] } },
{ "type": "Feature", "properties": { "NAME": "Podgorica" }, "geometry": { "type": "Point", "coordinates": [ 19.266307, 42.465973 ] } },
{ "type": "Feature", "properties": { "NAME": "Sri Jayawardenepura Kotte" }, "geometry": { "type": "Point", "coordinates": [ 79.949993, 6.900004 ] } },
{ "type": "Feature", "properties": { "NAME": "Baguio" }, "geometry": { "type": "Point", "coordinates": [ 120.569943, 16.429991 ] } },
{ "type": "Feature", "properties": { "NAME": "Dodoma" }, "geometry": { "type": "Point", "coordinates": [ 35.750004, -6.183306 ] } },
{ "type": "Feature", "properties": { "NAME": "Bern" }, "geometry": { "type": "Point", "coordinates": [ 7.466976, 46.916683 ] } },
{ "type": "Feature", "properties": { "NAME": "Laayoune" }, "geometry": { "type": "Point", "coordinates": [ -13.200006, 27.149982 ] } },
{ "type": "Feature", "properties": { "NAME": "Pristina" }, "geometry": { "type": "Point", "coordinates": [ 21.165984, 42.66671 ] } },
{ "type": "Feature", "properties": { "NAME": "Roseau" }, "geometry": { "type": "Point", "coordinates": [ -61.387013, 15.301016 ] } },
{ "type": "Feature", "properties": { "NAME": "Djibouti" }, "geometry": { "type": "Point", "coordinates": [ 43.148002, 11.595015 ] } },
{ "type": "Feature", "properties": { "NAME": "Putrajaya" }, "geometry": { "type": "Point", "coordinates": [ 101.701947, 2.91402 ] } },
{ "type": "Feature", "properties": { "NAME": "Kyoto" }, "geometry": { "type": "Point", "coordinates": [ 135.748052, 35.031938 ] } },
{ "type": "Feature", "properties": { "NAME": "Banjul" }, "geometry": { "type": "Point", "coordinates": [ -16.591702, 13.453877 ] } },
{ "type": "Feature", "properties": { "NAME": "Skopje" }, "geometry": { "type": "Point", "coordinates": [ 21.433462, 42.000006 ] } },
{ "type": "Feature", "properties": { "NAME": "Bridgetown" }, "geometry": { "type": "Point", "coordinates": [ -59.616527, 13.102003 ] } },
{ "type": "Feature", "properties": { "NAME": "Porto-Novo" }, "geometry": { "type": "Point", "coordinates": [ 2.616626, 6.483311 ] } },
{ "type": "Feature", "properties": { "NAME": "Bujumbura" }, "geometry": { "type": "Point", "coordinates": [ 29.360006, -3.376087 ] } },
{ "type": "Feature", "properties": { "NAME": "Kingstown" }, "geometry": { "type": "Point", "coordinates": [ -61.212062, 13.148279 ] } },
{ "type": "Feature", "properties": { "NAME": "Castries" }, "geometry": { "type": "Point", "coordinates": [ -61.000008, 14.001974 ] } },
{ "type": "Feature", "properties": { "NAME": "Basseterre" }, "geometry": { "type": "Point", "coordinates": [ -62.717009, 17.302031 ] } },
{ "type": "Feature", "properties": { "NAME": "Port Louis" }, "geometry": { "type": "Point", "coordinates": [ 57.499994, -20.166639 ] } },
{ "type": "Feature", "properties": { "NAME": "Saint George's" }, "geometry": { "type": "Point", "coordinates": [ -61.741643, 12.052633 ] } },
{ "type": "Feature", "properties": { "NAME": "Manama" }, "geometry": { "type": "Point", "coordinates": [ 50.583052, 26.236136 ] } },
{ "type": "Feature", "properties": { "NAME": "Saint John's" }, "geometry": { "type": "Point", "coordinates": [ -61.850034, 17.118037 ] } },
{ "type": "Feature", "properties": { "NAME": "Montevideo" }, "geometry": { "type": "Point", "coordinates": [ -56.172998, -34.856096 ] } },
{ "type": "Feature", "properties": { "NAME": "Lomé" }, "geometry": { "type": "Point", "coordinates": [ 1.220811, 6.133883 ] } },
{ "type": "Feature", "properties": { "NAME": "Tunis" }, "geometry": { "type": "Point", "coordinates": [ 10.179678, 36.802778 ] } },
{ "type": "Feature", "properties": { "NAME": "Abu Dhabi" }, "geometry": { "type": "Point", "coordinates": [ 54.366593, 24.466684 ] } },
{ "type": "Feature", "properties": { "NAME": "Ashgabat" }, "geometry": { "type": "Point", "coordinates": [ 58.383299, 37.949995 ] } },
{ "type": "Feature", "properties": { "NAME": "Lusaka" }, "geometry": { "type": "Point", "coordinates": [ 28.281382, -15.414698 ] } },
{ "type": "Feature", "properties": { "NAME": "Harare" }, "geometry": { "type": "Point", "coordinates": [ 31.042764, -17.815844 ] } },
{ "type": "Feature", "properties": { "NAME": "Dili" }, "geometry": { "type": "Point", "coordinates": [ 125.579456, -8.559388 ] } },
{ "type": "Feature", "properties": { "NAME": "Port Vila" }, "geometry": { "type": "Point", "coordinates": [ 168.316641, -17.73335 ] } },
{ "type": "Feature", "properties": { "NAME": "Tegucigalpa" }, "geometry": { "type": "Point", "coordinates": [ -87.219475, 14.103991 ] } },
{ "type": "Feature", "properties": { "NAME": "Georgetown" }, "geometry": { "type": "Point", "coordinates": [ -58.167029, 6.801974 ] } },
{ "type": "Feature", "properties": { "NAME": "Reykjavík" }, "geometry": { "type": "Point", "coordinates": [ -21.950015, 64.150024 ] } },
{ "type": "Feature", "properties": { "NAME": "Port-au-Prince" }, "geometry": { "type": "Point", "coordinates": [ -72.33798, 18.542971 ] } },
{ "type": "Feature", "properties": { "NAME": "Kampala" }, "geometry": { "type": "Point", "coordinates": [ 32.581378, 0.318605 ] } },
{ "type": "Feature", "properties": { "NAME": "Paramaribo" }, "geometry": { "type": "Point", "coordinates": [ -55.167031, 5.83503 ] } },
{ "type": "Feature", "properties": { "NAME": "Niamey" }, "geometry": { "type": "Point", "coordinates": [ 2.11471, 13.518652 ] } },
{ "type": "Feature", "properties": { "NAME": "Dushanbe" }, "geometry": { "type": "Point", "coordinates": [ 68.773879, 38.560035 ] } },
{ "type": "Feature", "properties": { "NAME": "Asunción" }, "geometry": { "type": "Point", "coordinates": [ -57.643451, -25.294457 ] } },
{ "type": "Feature", "properties": { "NAME": "Managua" }, "geometry": { "type": "Point", "coordinates": [ -86.270438, 12.154962 ] } },
{ "type": "Feature", "properties": { "NAME": "Freetown" }, "geometry": { "type": "Point", "coordinates": [ -13.236162, 8.471957 ] } },
{ "type": "Feature", "properties": { "NAME": "Islamabad" }, "geometry": { "type": "Point", "coordinates": [ 73.164689, 33.701942 ] } },
{ "type": "Feature", "properties": { "NAME": "Kathmandu" }, "geometry": { "type": "Point", "coordinates": [ 85.314696, 27.718638 ] } },
{ "type": "Feature", "properties": { "NAME": "Bloemfontein" }, "geometry": { "type": "Point", "coordinates": [ 26.229913, -29.119994 ] } },
{ "type": "Feature", "properties": { "NAME": "Pretoria" }, "geometry": { "type": "Point", "coordinates": [ 28.227483, -25.704975 ] } },
{ "type": "Feature", "properties": { "NAME": "Port Moresby" }, "geometry": { "type": "Point", "coordinates": [ 147.192504, -9.464708 ] } },
{ "type": "Feature", "properties": { "NAME": "Honiara" }, "geometry": { "type": "Point", "coordinates": [ 159.949766, -9.437994 ] } },
{ "type": "Feature", "properties": { "NAME": "Panama City" }, "geometry": { "type": "Point", "coordinates": [ -79.534983, 8.969963 ] } },
{ "type": "Feature", "properties": { "NAME": "Rabat" }, "geometry": { "type": "Point", "coordinates": [ -6.836408, 34.025307 ] } },
{ "type": "Feature", "properties": { "NAME": "Chișinău" }, "geometry": { "type": "Point", "coordinates": [ 28.857711, 47.005024 ] } },
{ "type": "Feature", "properties": { "NAME": "Maputo" }, "geometry": { "type": "Point", "coordinates": [ 32.587217, -25.953332 ] } },
{ "type": "Feature", "properties": { "NAME": "Mogadishu" }, "geometry": { "type": "Point", "coordinates": [ 45.364732, 2.068627 ] } },
{ "type": "Feature", "properties": { "NAME": "Muscat" }, "geometry": { "type": "Point", "coordinates": [ 58.593312, 23.613325 ] } },
{ "type": "Feature", "properties": { "NAME": "Colombo" }, "geometry": { "type": "Point", "coordinates": [ 79.857751, 6.931966 ] } },
{ "type": "Feature", "properties": { "NAME": "Ulaanbaatar" }, "geometry": { "type": "Point", "coordinates": [ 106.91467, 47.918619 ] } },
{ "type": "Feature", "properties": { "NAME": "Windhoek" }, "geometry": { "type": "Point", "coordinates": [ 17.083546, -22.570006 ] } },
{ "type": "Feature", "properties": { "NAME": "Abuja" }, "geometry": { "type": "Point", "coordinates": [ 7.531382, 9.085279 ] } },
{ "type": "Feature", "properties": { "NAME": "Bissau" }, "geometry": { "type": "Point", "coordinates": [ -15.598361, 11.865024 ] } },
{ "type": "Feature", "properties": { "NAME": "Amman" }, "geometry": { "type": "Point", "coordinates": [ 35.931354, 31.951971 ] } },
{ "type": "Feature", "properties": { "NAME": "Vilnius" }, "geometry": { "type": "Point", "coordinates": [ 25.316635, 54.683366 ] } },
{ "type": "Feature", "properties": { "NAME": "Riga" }, "geometry": { "type": "Point", "coordinates": [ 24.099965, 56.950024 ] } },
{ "type": "Feature", "properties": { "NAME": "Bishkek" }, "geometry": { "type": "Point", "coordinates": [ 74.583258, 42.875025 ] } },
{ "type": "Feature", "properties": { "NAME": "Maseru" }, "geometry": { "type": "Point", "coordinates": [ 27.483273, -29.316674 ] } },
{ "type": "Feature", "properties": { "NAME": "Antananarivo" }, "geometry": { "type": "Point", "coordinates": [ 47.514678, -18.914692 ] } },
{ "type": "Feature", "properties": { "NAME": "Quito" }, "geometry": { "type": "Point", "coordinates": [ -78.501997, -0.213042 ] } },
{ "type": "Feature", "properties": { "NAME": "San José" }, "geometry": { "type": "Point", "coordinates": [ -84.085997, 9.936958 ] } },
{ "type": "Feature", "properties": { "NAME": "San Salvador" }, "geometry": { "type": "Point", "coordinates": [ -89.204987, 13.711948 ] } },
{ "type": "Feature", "properties": { "NAME": "Kingston" }, "geometry": { "type": "Point", "coordinates": [ -76.767434, 17.977077 ] } },
{ "type": "Feature", "properties": { "NAME": "N'Djamena" }, "geometry": { "type": "Point", "coordinates": [ 15.047203, 12.115042 ] } },
{ "type": "Feature", "properties": { "NAME": "Malabo" }, "geometry": { "type": "Point", "coordinates": [ 8.783278, 3.750015 ] } },
{ "type": "Feature", "properties": { "NAME": "Asmara" }, "geometry": { "type": "Point", "coordinates": [ 38.933324, 15.333339 ] } },
{ "type": "Feature", "properties": { "NAME": "Zagreb" }, "geometry": { "type": "Point", "coordinates": [ 15.999995, 45.800007 ] } },
{ "type": "Feature", "properties": { "NAME": "Tallinn" }, "geometry": { "type": "Point", "coordinates": [ 24.728041, 59.433877 ] } },
{ "type": "Feature", "properties": { "NAME": "Lilongwe" }, "geometry": { "type": "Point", "coordinates": [ 33.783302, -13.983295 ] } },
{ "type": "Feature", "properties": { "NAME": "Guatemala City" }, "geometry": { "type": "Point", "coordinates": [ -90.528911, 14.623081 ] } },
{ "type": "Feature", "properties": { "NAME": "Libreville" }, "geometry": { "type": "Point", "coordinates": [ 9.457965, 0.385389 ] } },
{ "type": "Feature", "properties": { "NAME": "Suva" }, "geometry": { "type": "Point", "coordinates": [ 178.441707, -18.133016 ] } },
{ "type": "Feature", "properties": { "NAME": "Valparaíso" }, "geometry": { "type": "Point", "coordinates": [ -71.62296, -33.045819 ] } },
{ "type": "Feature", "properties": { "NAME": "Nouakchott" }, "geometry": { "type": "Point", "coordinates": [ -15.97534, 18.086427 ] } },
{ "type": "Feature", "properties": { "NAME": "Bamako" }, "geometry": { "type": "Point", "coordinates": [ -8.001985, 12.651961 ] } },
{ "type": "Feature", "properties": { "NAME": "Beirut" }, "geometry": { "type": "Point", "coordinates": [ 35.507762, 33.873921 ] } },
{ "type": "Feature", "properties": { "NAME": "Tbilisi" }, "geometry": { "type": "Point", "coordinates": [ 44.78885, 41.726956 ] } },
{ "type": "Feature", "properties": { "NAME": "Nur-Sultan" }, "geometry": { "type": "Point", "coordinates": [ 71.427774, 51.181125 ] } },
{ "type": "Feature", "properties": { "NAME": "Vientiane" }, "geometry": { "type": "Point", "coordinates": [ 102.59998, 17.966693 ] } },
{ "type": "Feature", "properties": { "NAME": "Brazzaville" }, "geometry": { "type": "Point", "coordinates": [ 15.282744, -4.25724 ] } },
{ "type": "Feature", "properties": { "NAME": "Conakry" }, "geometry": { "type": "Point", "coordinates": [ -13.682181, 9.533469 ] } },
{ "type": "Feature", "properties": { "NAME": "Yamoussoukro" }, "geometry": { "type": "Point", "coordinates": [ -5.275503, 6.818381 ] } },
{ "type": "Feature", "properties": { "NAME": "Ottawa" }, "geometry": { "type": "Point", "coordinates": [ -75.701961, 45.418643 ] } },
{ "type": "Feature", "properties": { "NAME": "Belgrade" }, "geometry": { "type": "Point", "coordinates": [ 20.466045, 44.820591 ] } },
{ "type": "Feature", "properties": { "NAME": "Bandar Seri Begawan" }, "geometry": { "type": "Point", "coordinates": [ 114.933284, 4.883331 ] } },
{ "type": "Feature", "properties": { "NAME": "Sucre" }, "geometry": { "type": "Point", "coordinates": [ -65.259516, -19.040971 ] } },
{ "type": "Feature", "properties": { "NAME": "Belmopan" }, "geometry": { "type": "Point", "coordinates": [ -88.767073, 17.252034 ] } },
{ "type": "Feature", "properties": { "NAME": "Bangui" }, "geometry": { "type": "Point", "coordinates": [ 18.558288, 4.366644 ] } },
{ "type": "Feature", "properties": { "NAME": "Yaoundé" }, "geometry": { "type": "Point", "coordinates": [ 11.514705, 3.868647 ] } },
{ "type": "Feature", "properties": { "NAME": "Tirana" }, "geometry": { "type": "Point", "coordinates": [ 19.818883, 41.327541 ] } },
{ "type": "Feature", "properties": { "NAME": "Yerevan" }, "geometry": { "type": "Point", "coordinates": [ 44.511606, 40.183097 ] } },
{ "type": "Feature", "properties": { "NAME": "Baku" }, "geometry": { "type": "Point", "coordinates": [ 49.860271, 40.397218 ] } },
{ "type": "Feature", "properties": { "NAME": "Phnom Penh" }, "geometry": { "type": "Point", "coordinates": [ 104.914689, 11.551976 ] } },
{ "type": "Feature", "properties": { "NAME": "La Paz" }, "geometry": { "type": "Point", "coordinates": [ -68.151931, -16.496028 ] } },
{ "type": "Feature", "properties": { "NAME": "Cotonou" }, "geometry": { "type": "Point", "coordinates": [ 2.518045, 6.401954 ] } },
{ "type": "Feature", "properties": { "NAME": "Sofia" }, "geometry": { "type": "Point", "coordinates": [ 23.314708, 42.685295 ] } },
{ "type": "Feature", "properties": { "NAME": "Minsk" }, "geometry": { "type": "Point", "coordinates": [ 27.564681, 53.901923 ] } },
{ "type": "Feature", "properties": { "NAME": "Thimphu" }, "geometry": { "type": "Point", "coordinates": [ 89.639014, 27.472986 ] } },
{ "type": "Feature", "properties": { "NAME": "Gaborone" }, "geometry": { "type": "Point", "coordinates": [ 25.911948, -24.646314 ] } },
{ "type": "Feature", "properties": { "NAME": "Canberra" }, "geometry": { "type": "Point", "coordinates": [ 149.129026, -35.283029 ] } },
{ "type": "Feature", "properties": { "NAME": "Ouagadougou" }, "geometry": { "type": "Point", "coordinates": [ -1.52667, 12.372262 ] } },
{ "type": "Feature", "properties": { "NAME": "Sarajevo" }, "geometry": { "type": "Point", "coordinates": [ 18.383002, 43.850022 ] } },
{ "type": "Feature", "properties": { "NAME": "Naypyidaw" }, "geometry": { "type": "Point", "coordinates": [ 96.116673, 19.768503 ] } },
{ "type": "Feature", "properties": { "NAME": "Nuku'alofa" }, "geometry": { "type": "Point", "coordinates": [ -175.220565, -21.138512 ] } },
{ "type": "Feature", "properties": { "NAME": "Hargeisa" }, "geometry": { "type": "Point", "coordinates": [ 44.06531, 9.560022 ] } },
{ "type": "Feature", "properties": { "NAME": "Victoria" }, "geometry": { "type": "Point", "coordinates": [ 55.44999, -4.616632 ] } },
{ "type": "Feature", "properties": { "NAME": "São Tomé" }, "geometry": { "type": "Point", "coordinates": [ 6.733325, 0.333402 ] } },
{ "type": "Feature", "properties": { "NAME": "Apia" }, "geometry": { "type": "Point", "coordinates": [ -171.738642, -13.841545 ] } },
{ "type": "Feature", "properties": { "NAME": "Valletta" }, "geometry": { "type": "Point", "coordinates": [ 14.514711, 35.899733 ] } },
{ "type": "Feature", "properties": { "NAME": "Malé" }, "geometry": { "type": "Point", "coordinates": [ 73.499948, 4.166708 ] } },
{ "type": "Feature", "properties": { "NAME": "Jerusalem" }, "geometry": { "type": "Point", "coordinates": [ 35.206626, 31.778408 ] } },
{ "type": "Feature", "properties": { "NAME": "Praia" }, "geometry": { "type": "Point", "coordinates": [ -23.516689, 14.916698 ] } },
{ "type": "Feature", "properties": { "NAME": "Nassau" }, "geometry": { "type": "Point", "coordinates": [ -77.350044, 25.08339 ] } },
{ "type": "Feature", "properties": { "NAME": "Nicosia" }, "geometry": { "type": "Point", "coordinates": [ 33.366635, 35.166677 ] } },
{ "type": "Feature", "properties": { "NAME": "Wellington" }, "geometry": { "type": "Point", "coordinates": [ 174.783266, -41.299988 ] } },
{ "type": "Feature", "properties": { "NAME": "Hanoi" }, "geometry": { "type": "Point", "coordinates": [ 105.848068, 21.035273 ] } },
{ "type": "Feature", "properties": { "NAME": "Ankara" }, "geometry": { "type": "Point", "coordinates": [ 32.862446, 39.929184 ] } },
{ "type": "Feature", "properties": { "NAME": "Budapest" }, "geometry": { "type": "Point", "coordinates": [ 19.081375, 47.501952 ] } },
{ "type": "Feature", "properties": { "NAME": "Sanaa" }, "geometry": { "type": "Point", "coordinates": [ 44.204648, 15.356679 ] } },
{ "type": "Feature", "properties": { "NAME": "Bucharest" }, "geometry": { "type": "Point", "coordinates": [ 26.098001, 44.435318 ] } },
{ "type": "Feature", "properties": { "NAME": "Damascus" }, "geometry": { "type": "Point", "coordinates": [ 36.29805, 33.50198 ] } },
{ "type": "Feature", "properties": { "NAME": "Lisbon" }, "geometry": { "type": "Point", "coordinates": [ -9.146812, 38.724669 ] } },
{ "type": "Feature", "properties": { "NAME": "Khartoum" }, "geometry": { "type": "Point", "coordinates": [ 32.532233, 15.590024 ] } },
{ "type": "Feature", "properties": { "NAME": "Oslo" }, "geometry": { "type": "Point", "coordinates": [ 10.748033, 59.918636 ] } },
{ "type": "Feature", "properties": { "NAME": "Warsaw" }, "geometry": { "type": "Point", "coordinates": [ 20.998054, 52.251947 ] } },
{ "type": "Feature", "properties": { "NAME": "Pyongyang" }, "geometry": { "type": "Point", "coordinates": [ 125.752745, 39.021385 ] } },
{ "type": "Feature", "properties": { "NAME": "Dar es Salaam" }, "geometry": { "type": "Point", "coordinates": [ 39.266396, -6.798067 ] } },
{ "type": "Feature", "properties": { "NAME": "Dublin" }, "geometry": { "type": "Point", "coordinates": [ -6.250852, 53.335007 ] } },
{ "type": "Feature", "properties": { "NAME": "Monrovia" }, "geometry": { "type": "Point", "coordinates": [ -10.79966, 6.314582 ] } },
{ "type": "Feature", "properties": { "NAME": "Kuala Lumpur" }, "geometry": { "type": "Point", "coordinates": [ 101.698037, 3.168612 ] } },
{ "type": "Feature", "properties": { "NAME": "Havana" }, "geometry": { "type": "Point", "coordinates": [ -82.366128, 23.133905 ] } },
{ "type": "Feature", "properties": { "NAME": "Prague" }, "geometry": { "type": "Point", "coordinates": [ 14.464034, 50.085283 ] } },
{ "type": "Feature", "properties": { "NAME": "Kuwait City" }, "geometry": { "type": "Point", "coordinates": [ 47.976355, 29.371664 ] } },
{ "type": "Feature", "properties": { "NAME": "Santo Domingo" }, "geometry": { "type": "Point", "coordinates": [ -69.902031, 18.472019 ] } },
{ "type": "Feature", "properties": { "NAME": "Accra" }, "geometry": { "type": "Point", "coordinates": [ -0.218662, 5.551981 ] } },
{ "type": "Feature", "properties": { "NAME": "Tripoli" }, "geometry": { "type": "Point", "coordinates": [ 13.180012, 32.8925 ] } },
{ "type": "Feature", "properties": { "NAME": "Tel Aviv" }, "geometry": { "type": "Point", "coordinates": [ 34.768066, 32.081937 ] } },
{ "type": "Feature", "properties": { "NAME": "Helsinki" }, "geometry": { "type": "Point", "coordinates": [ 24.932181, 60.177509 ] } },
{ "type": "Feature", "properties": { "NAME": "København" }, "geometry": { "type": "Point", "coordinates": [ 12.56154, 55.68051 ] } },
{ "type": "Feature", "properties": { "NAME": "Abidjan" }, "geometry": { "type": "Point", "coordinates": [ -4.041994, 5.321943 ] } },
{ "type": "Feature", "properties": { "NAME": "Brasília" }, "geometry": { "type": "Point", "coordinates": [ -47.917998, -15.781394 ] } },
{ "type": "Feature", "properties": { "NAME": "Brussels" }, "geometry": { "type": "Point", "coordinates": [ 4.331371, 50.835263 ] } },
{ "type": "Feature", "properties": { "NAME": "Dhaka" }, "geometry": { "type": "Point", "coordinates": [ 90.406634, 23.725006 ] } },
{ "type": "Feature", "properties": { "NAME": "Luanda" }, "geometry": { "type": "Point", "coordinates": [ 13.232481, -8.83634 ] } },
{ "type": "Feature", "properties": { "NAME": "Algiers" }, "geometry": { "type": "Point", "coordinates": [ 3.048607, 36.765011 ] } },
{ "type": "Feature", "properties": { "NAME": "Yangon" }, "geometry": { "type": "Point", "coordinates": [ 96.164732, 16.7853 ] } },
{ "type": "Feature", "properties": { "NAME": "San Francisco" }, "geometry": { "type": "Point", "coordinates": [ -122.417169, 37.769196 ] } },
{ "type": "Feature", "properties": { "NAME": "Denver" }, "geometry": { "type": "Point", "coordinates": [ -104.985962, 39.741134 ] } },
{ "type": "Feature", "properties": { "NAME": "Houston" }, "geometry": { "type": "Point", "coordinates": [ -95.341925, 29.82192 ] } },
{ "type": "Feature", "properties": { "NAME": "Miami" }, "geometry": { "type": "Point", "coordinates": [ -80.226052, 25.789557 ] } },
{ "type": "Feature", "properties": { "NAME": "Atlanta" }, "geometry": { "type": "Point", "coordinates": [ -84.401895, 33.83196 ] } },
{ "type": "Feature", "properties": { "NAME": "Chicago" }, "geometry": { "type": "Point", "coordinates": [ -87.752001, 41.831937 ] } },
{ "type": "Feature", "properties": { "NAME": "Caracas" }, "geometry": { "type": "Point", "coordinates": [ -66.918983, 10.502944 ] } },
{ "type": "Feature", "properties": { "NAME": "Kyiv" }, "geometry": { "type": "Point", "coordinates": [ 30.514682, 50.435313 ] } },
{ "type": "Feature", "properties": { "NAME": "Dubai" }, "geometry": { "type": "Point", "coordinates": [ 55.278029, 25.231942 ] } },
{ "type": "Feature", "properties": { "NAME": "Tashkent" }, "geometry": { "type": "Point", "coordinates": [ 69.292987, 41.313648 ] } },
{ "type": "Feature", "properties": { "NAME": "Madrid" }, "geometry": { "type": "Point", "coordinates": [ -3.685298, 40.401972 ] } },
{ "type": "Feature", "properties": { "NAME": "Geneva" }, "geometry": { "type": "Point", "coordinates": [ 6.140028, 46.210008 ] } },
{ "type": "Feature", "properties": { "NAME": "Stockholm" }, "geometry": { "type": "Point", "coordinates": [ 18.095389, 59.352706 ] } },
{ "type": "Feature", "properties": { "NAME": "Bangkok" }, "geometry": { "type": "Point", "coordinates": [ 100.514699, 13.751945 ] } },
{ "type": "Feature", "properties": { "NAME": "Lima" }, "geometry": { "type": "Point", "coordinates": [ -77.052008, -12.046067 ] } },
{ "type": "Feature", "properties": { "NAME": "Dakar" }, "geometry": { "type": "Point", "coordinates": [ -17.475076, 14.717778 ] } },
{ "type": "Feature", "properties": { "NAME": "Johannesburg" }, "geometry": { "type": "Point", "coordinates": [ 28.028064, -26.168099 ] } },
{ "type": "Feature", "properties": { "NAME": "Amsterdam" }, "geometry": { "type": "Point", "coordinates": [ 4.914694, 52.351915 ] } },
{ "type": "Feature", "properties": { "NAME": "Casablanca" }, "geometry": { "type": "Point", "coordinates": [ -7.618313, 33.601922 ] } },
{ "type": "Feature", "properties": { "NAME": "Seoul" }, "geometry": { "type": "Point", "coordinates": [ 126.997785, 37.568295 ] } },
{ "type": "Feature", "properties": { "NAME": "Manila" }, "geometry": { "type": "Point", "coordinates": [ 120.980271, 14.606105 ] } },
{ "type": "Feature", "properties": { "NAME": "Monterrey" }, "geometry": { "type": "Point", "coordinates": [ -100.331931, 25.671941 ] } },
{ "type": "Feature", "properties": { "NAME": "Berlin" }, "geometry": { "type": "Point", "coordinates": [ 13.399603, 52.523765 ] } },
{ "type": "Feature", "properties": { "NAME": "Ürümqi" }, "geometry": { "type": "Point", "coordinates": [ 87.57306, 43.806958 ] } },
{ "type": "Feature", "properties": { "NAME": "Chengdu" }, "geometry": { "type": "Point", "coordinates": [ 104.068074, 30.671946 ] } },
{ "type": "Feature", "properties": { "NAME": "Ōsaka" }, "geometry": { "type": "Point", "coordinates": [ 135.458199, 34.751981 ] } },
{ "type": "Feature", "properties": { "NAME": "Kinshasa" }, "geometry": { "type": "Point", "coordinates": [ 15.313026, -4.327778 ] } },
{ "type": "Feature", "properties": { "NAME": "New Delhi" }, "geometry": { "type": "Point", "coordinates": [ 77.19998, 28.600023 ] } },
{ "type": "Feature", "properties": { "NAME": "Bengaluru" }, "geometry": { "type": "Point", "coordinates": [ 77.558064, 12.971941 ] } },
{ "type": "Feature", "properties": { "NAME": "Athens" }, "geometry": { "type": "Point", "coordinates": [ 23.731375, 37.985272 ] } },
{ "type": "Feature", "properties": { "NAME": "Baghdad" }, "geometry": { "type": "Point", "coordinates": [ 44.391923, 33.340594 ] } },
{ "type": "Feature", "properties": { "NAME": "Addis Ababa" }, "geometry": { "type": "Point", "coordinates": [ 38.698059, 9.035256 ] } },
{ "type": "Feature", "properties": { "NAME": "Tehran" }, "geometry": { "type": "Point", "coordinates": [ 51.422398, 35.673889 ] } },
{ "type": "Feature", "properties": { "NAME": "Vancouver" }, "geometry": { "type": "Point", "coordinates": [ -123.12359, 49.275362 ] } },
{ "type": "Feature", "properties": { "NAME": "Toronto" }, "geometry": { "type": "Point", "coordinates": [ -79.421967, 43.701926 ] } },
{ "type": "Feature", "properties": { "NAME": "Buenos Aires" }, "geometry": { "type": "Point", "coordinates": [ -58.399477, -34.600556 ] } },
{ "type": "Feature", "properties": { "NAME": "Kabul" }, "geometry": { "type": "Point", "coordinates": [ 69.181314, 34.518636 ] } },
{ "type": "Feature", "properties": { "NAME": "Vienna" }, "geometry": { "type": "Point", "coordinates": [ 16.364693, 48.201961 ] } },
{ "type": "Feature", "properties": { "NAME": "Melbourne" }, "geometry": { "type": "Point", "coordinates": [ 144.97307, -37.818086 ] } },
{ "type": "Feature", "properties": { "NAME": "Taipei" }, "geometry": { "type": "Point", "coordinates": [ 121.568333, 25.035833 ] } },
{ "type": "Feature", "properties": { "NAME": "Auckland" }, "geometry": { "type": "Point", "coordinates": [ 174.763027, -36.848055 ] } },
{ "type": "Feature", "properties": { "NAME": "Los Angeles" }, "geometry": { "type": "Point", "coordinates": [ -118.181926, 33.991924 ] } },
{ "type": "Feature", "properties": { "NAME": "Washington,  D.C." }, "geometry": { "type": "Point", "coordinates": [ -77.011364, 38.901495 ] } },
{ "type": "Feature", "properties": { "NAME": "New York" }, "geometry": { "type": "Point", "coordinates": [ -73.981963, 40.751925 ] } },
{ "type": "Feature", "properties": { "NAME": "London" }, "geometry": { "type": "Point", "coordinates": [ -0.118668, 51.501941 ] } },
{ "type": "Feature", "properties": { "NAME": "Istanbul" }, "geometry": { "type": "Point", "coordinates": [ 29.008056, 41.106942 ] } },
{ "type": "Feature", "properties": { "NAME": "Riyadh" }, "geometry": { "type": "Point", "coordinates": [ 46.770796, 24.642779 ] } },
{ "type": "Feature", "properties": { "NAME": "Cape Town" }, "geometry": { "type": "Point", "coordinates": [ 18.433042, -33.918065 ] } },
{ "type": "Feature", "properties": { "NAME": "Moscow" }, "geometry": { "type": "Point", "coordinates": [ 37.613577, 55.75411 ] } },
{ "type": "Feature", "properties": { "NAME": "Mexico City" }, "geometry": { "type": "Point", "coordinates": [ -99.132934, 19.444388 ] } },
{ "type": "Feature", "properties": { "NAME": "Lagos" }, "geometry": { "type": "Point", "coordinates": [ 3.389585, 6.445208 ] } },
{ "type": "Feature", "properties": { "NAME": "Rome" }, "geometry": { "type": "Point", "coordinates": [ 12.481313, 41.897902 ] } },
{ "type": "Feature", "properties": { "NAME": "Beijing" }, "geometry": { "type": "Point", "coordinates": [ 116.38634, 39.930838 ] } },
{ "type": "Feature", "properties": { "NAME": "Nairobi" }, "geometry": { "type": "Point", "coordinates": [ 36.814711, -1.281401 ] } },
{ "type": "Feature", "properties": { "NAME": "Jakarta" }, "geometry": { "type": "Point", "coordinates": [ 106.827492, -6.172472 ] } },
{ "type": "Feature", "properties": { "NAME": "Bogota" }, "geometry": { "type": "Point", "coordinates": [ -74.08529, 4.598369 ] } },
{ "type": "Feature", "properties": { "NAME": "Cairo" }, "geometry": { "type": "Point", "coordinates": [ 31.248022, 30.051906 ] } },
{ "type": "Feature", "properties": { "NAME": "Shanghai" }, "geometry": { "type": "Point", "coordinates": [ 121.434559, 31.218398 ] } },
{ "type": "Feature", "properties": { "NAME": "Tokyo" }, "geometry": { "type": "Point", "coordinates": [ 139.749462, 35.686963 ] } },
{ "type": "Feature", "properties": { "NAME": "Mumbai" }, "geometry": { "type": "Point", "coordinates": [ 72.855043, 19.018936 ] } },
{ "type": "Feature", "properties": { "NAME": "Paris" }, "geometry": { "type": "Point", "coordinates": [ 2.33139, 48.868639 ] } },
{ "type": "Feature", "properties": { "NAME": "Santiago" }, "geometry": { "type": "Point", "coordinates": [ -70.668987, -33.448068 ] } },
{ "type": "Feature", "properties": { "NAME": "Kolkata" }, "geometry": { "type": "Point", "coordinates": [ 88.32273, 22.496915 ] } },
{ "type": "Feature", "properties": { "NAME": "Rio de Janeiro" }, "geometry": { "type": "Point", "coordinates": [ -43.226967, -22.923077 ] } },
{ "type": "Feature", "properties": { "NAME": "São Paulo" }, "geometry": { "type": "Point", "coordinates": [ -46.626966, -23.556734 ] } },
{ "type": "Feature", "properties": { "NAME": "Sydney" }, "geometry": { "type": "Point", "coordinates": [ 151.183234, -33.918065 ] } },
{ "type": "Feature", "properties": { "NAME": "Singapore" }, "geometry": { "type": "Point", "coordinates": [ 103.853875, 1.294979 ] } },
{ "type": "Feature", "properties": { "NAME": "Hong Kong" }, "geometry": { "type": "Point", "coordinates": [ 114.183064, 22.306927 ] } }
]
}
